[{"id":4,"name":"Sunshine Car Hire","availableVehicles":[],"businessHours":"8:30 AM - 5:30 PM","status":"Open","location":{"house_number":"321","city":"Miami","road":"Pine Street","zip":"33101","lat":31.60487,"lng":-91.77554},"logo":"https://images-ext-1.discordapp.net/external/ZZBQ5rZzdZ-8t1TaG4V-NyqdJwALZ1KIWFKRrr771ME/https/randomwordgenerator.com/img/picture-generator/54e6d14b4d55a814f1dc8460962e33791c3ad6e04e507441722779d49448cd_640.jpg","rating":0,"ratingCount":0},{"id":6,"name":"Coastal Auto Rentals","businessHours":"8:00 AM - 6:00 PM","status":"Closed","location":{"house_number":"555","city":"Seattle","road":"Beach Road","zip":"98101","lat":31.60487,"lng":-91.77554},"logo":"https://www.adaptivewfs.com/wp-content/uploads/2020/07/logo-placeholder-image.png","rating":3.2222222222222223,"ratingCount":9},{"id":9,"name":"Pacific Auto Rentals","businessHours":"9:00 AM - 6:00 PM","status":"Closed","location":{"house_number":"444","city":"Honolulu","road":"Palm Avenue","zip":"96801","lat":31.60487,"lng":-91.77554},"logo":"https://www.adaptivewfs.com/wp-content/uploads/2020/07/logo-placeholder-image.png","rating":0,"ratingCount":0,"availableVehicles":[]},{"name":"novi","businessHours":"9:00 AM - 6:00 PM","location":{"house_number":"20","road":"Pavla Papa","quarter":"Rotkvarija","suburb":"МЗ Житни трг","city_district":"Novi Sad","city":"Novi Sad City","county":"South Backa Administrative District","ISO3166-2-lvl6":"RS-06","state":"Vojvodina","ISO3166-2-lvl4":"RS-VO","postcode":"21101","country":"Serbia","country_code":"rs","lat":45.25505205131452,"lng":19.838733961651524},"logo":"https://randomwordgenerator.com/img/picture-generator/53e0d4464257ab14f1dc8460962e33791c3ad6e04e507440762a7cd0934fc5_640.jpg","rating":0,"ratingCount":0,"id":10,"deleted":false}]
